{
  "offices": [
    {
      "id": 1,
      "address": "7 2nd Avenue",
      "city": "Caticugan",
      "country": "Philippines",
      "dateCreate": "2019-10-14 13:16:08",
      "description": "pede lobortis ligula sit amet eleifend pede libero quis orci nullam molestie nibh in lectus pellentesque at nulla",
      "imageUrl": "http://dummyimage.com/1890x1610.png/dddddd/000000",
      "latitude": 9.0627148,
      "longitude": 123.0290352,
      "name": "Leannon, Tillman and Quigley"
    },
    {
      "id": 2,
      "address": "007 Veith Trail",
      "city": "Medianeira",
      "country": "Brazil",
      "dateCreate": "2020-01-14 19:26:18",
      "description": "neque aenean auctor gravida sem praesent id massa id nisl venenatis lacinia aenean sit amet",
      "imageUrl": "http://dummyimage.com/2321x2278.png/ff4444/ffffff",
      "latitude": -25.2952784,
      "longitude": -54.0932225,
      "name": "O'Reilly, Borer and Considine"
    },
    {
      "id": 3,
      "address": "27302 Stoughton Road",
      "city": "Nonoichi",
      "country": "Japan",
      "dateCreate": "2019-08-31 08:18:50",
      "description": "quisque ut erat curabitur gravida nisi at nibh in hac habitasse platea dictumst aliquam augue quam sollicitudin vitae consectetuer eget",
      "imageUrl": "http://dummyimage.com/1717x1729.bmp/5fa2dd/ffffff",
      "latitude": 33.8941622,
      "longitude": 133.1395202,
      "name": "Lehner, Schowalter and Bartoletti"
    },
    {
      "id": 4,
      "address": "34786 5th Parkway",
      "city": "Bhiria",
      "country": "Pakistan",
      "dateCreate": "2020-04-17 06:10:40",
      "description": "aliquet pulvinar sed nisl nunc rhoncus dui vel sem sed",
      "imageUrl": "http://dummyimage.com/1184x1682.bmp/dddddd/000000",
      "latitude": 26.9105097,
      "longitude": 68.1863546,
      "name": "Parisian-Kirlin"
    },
    {
      "id": 5,
      "address": "1621 Leroy Park",
      "city": "Senglea",
      "country": "Malta",
      "dateCreate": "2020-04-30 00:12:10",
      "description": "eu tincidunt in leo maecenas pulvinar lobortis est phasellus sit amet erat nulla tempus vivamus in felis eu",
      "imageUrl": "http://dummyimage.com/2149x1154.png/cc0000/ffffff",
      "latitude": 35.8875,
      "longitude": 14.51694,
      "name": "Flatley, Rath and Haag"
    },
    {
      "id": 6,
      "address": "508 Arapahoe Plaza",
      "city": "Alta",
      "country": "Norway",
      "dateCreate": "2020-05-10 23:47:28",
      "description": "suspendisse potenti in eleifend quam a odio in hac habitasse platea dictumst maecenas ut massa quis augue luctus tincidunt nulla",
      "imageUrl": "http://dummyimage.com/1807x2219.png/dddddd/000000",
      "latitude": 69.9717043,
      "longitude": 23.287731,
      "name": "Kertzmann and Sons"
    },
    {
      "id": 7,
      "address": "41079 Union Hill",
      "city": "Frankfurt am Main",
      "country": "Germany",
      "dateCreate": "2020-05-18 14:25:10",
      "description": "lobortis est phasellus sit amet erat nulla tempus vivamus in felis eu sapien",
      "imageUrl": "http://dummyimage.com/1605x2106.bmp/ff4444/ffffff",
      "latitude": 50.1616215,
      "longitude": 8.7032376,
      "name": "Marks Inc"
    },
    {
      "id": 8,
      "address": "97454 Merry Alley",
      "city": "Jiangxiangzhen",
      "country": "China",
      "dateCreate": "2020-05-09 05:34:19",
      "description": "in eleifend quam a odio in hac habitasse platea dictumst",
      "imageUrl": "http://dummyimage.com/2299x2452.bmp/cc0000/ffffff",
      "latitude": 28.75778,
      "longitude": 116.024389,
      "name": "Huel Inc"
    },
    {
      "id": 9,
      "address": "93 Loftsgordon Point",
      "city": "Senada",
      "country": "Morocco",
      "dateCreate": "2020-08-09 10:19:21",
      "description": "posuere cubilia curae nulla dapibus dolor vel est donec odio justo sollicitudin",
      "imageUrl": "http://dummyimage.com/2449x2235.jpg/ff4444/ffffff",
      "latitude": 35.0785984,
      "longitude": -4.215396,
      "name": "Farrell, Abbott and Olson"
    },
    {
      "id": 10,
      "address": "9 Moose Terrace",
      "city": "Figueira dos Cavaleiros",
      "country": "Portugal",
      "dateCreate": "2020-05-30 06:47:46",
      "description": "placerat praesent blandit nam nulla integer pede justo lacinia eget tincidunt eget tempus vel pede morbi porttitor",
      "imageUrl": "http://dummyimage.com/2036x1743.jpg/cc0000/ffffff",
      "latitude": 38.09234,
      "longitude": -8.204915,
      "name": "Wiza-Klein"
    },
    {
      "id": 11,
      "address": "781 Eagle Crest Place",
      "city": "Samadua",
      "country": "Indonesia",
      "dateCreate": "2020-05-14 10:54:30",
      "description": "sit amet nulla quisque arcu libero rutrum ac lobortis vel dapibus at diam",
      "imageUrl": "http://dummyimage.com/1171x1030.bmp/ff4444/ffffff",
      "latitude": 3.7334765,
      "longitude": 96.7999931,
      "name": "Johns and Sons"
    },
    {
      "id": 12,
      "address": "8236 Vermont Terrace",
      "city": "Oliveira",
      "country": "Brazil",
      "dateCreate": "2020-02-13 10:16:29",
      "description": "odio cras mi pede malesuada in imperdiet et commodo vulputate justo in blandit ultrices enim lorem ipsum",
      "imageUrl": "http://dummyimage.com/2216x2139.bmp/5fa2dd/ffffff",
      "latitude": -20.6984299,
      "longitude": -44.8256777,
      "name": "Hermiston, Kuhn and Flatley"
    },
    {
      "id": 13,
      "address": "772 Birchwood Park",
      "city": "Repel√≥n",
      "country": "Colombia",
      "dateCreate": "2020-01-25 23:47:09",
      "description": "auctor sed tristique in tempus sit amet sem fusce consequat",
      "imageUrl": "http://dummyimage.com/1204x1834.jpg/cc0000/ffffff",
      "latitude": 10.5646285,
      "longitude": -75.1232201,
      "name": "Mosciski-Crona"
    },
    {
      "id": 14,
      "address": "56731 Mcbride Street",
      "city": "Yylanly",
      "country": "Turkmenistan",
      "dateCreate": "2020-03-19 15:47:27",
      "description": "vestibulum ante ipsum primis in faucibus orci luctus et ultrices",
      "imageUrl": "http://dummyimage.com/1013x2136.jpg/5fa2dd/ffffff",
      "latitude": 41.8639083,
      "longitude": 59.6326482,
      "name": "Reichert and Sons"
    },
    {
      "id": 15,
      "address": "8506 Magdeline Avenue",
      "city": "San Francisco",
      "country": "United States",
      "dateCreate": "2020-06-30 23:06:29",
      "description": "duis consequat dui nec nisi volutpat eleifend donec ut dolor morbi vel lectus in quam fringilla",
      "imageUrl": "http://dummyimage.com/1215x1624.png/5fa2dd/ffffff",
      "latitude": 37.7794055,
      "longitude": -122.4494738,
      "name": "Jones LLC"
    },
    {
      "id": 16,
      "address": "8076 Atwood Drive",
      "city": "Sanzao",
      "country": "China",
      "dateCreate": "2019-10-16 02:36:31",
      "description": "nunc commodo placerat praesent blandit nam nulla integer pede justo lacinia eget tincidunt eget tempus vel pede",
      "imageUrl": "http://dummyimage.com/1689x1748.png/cc0000/ffffff",
      "latitude": 22.0080725,
      "longitude": 113.3785933,
      "name": "Zieme, Powlowski and Effertz"
    },
    {
      "id": 17,
      "address": "3652 Northwestern Trail",
      "city": "Longmiao",
      "country": "China",
      "dateCreate": "2020-08-02 08:13:18",
      "description": "semper porta volutpat quam pede lobortis ligula sit amet eleifend pede libero quis",
      "imageUrl": "http://dummyimage.com/2016x1064.bmp/5fa2dd/ffffff",
      "latitude": 25.954126,
      "longitude": 106.161173,
      "name": "Bode-Cartwright"
    },
    {
      "id": 18,
      "address": "3 Schmedeman Lane",
      "city": "Haeju",
      "country": "North Korea",
      "dateCreate": "2020-07-23 04:37:33",
      "description": "nulla ut erat id mauris vulputate elementum nullam varius nulla facilisi cras non velit nec nisi vulputate",
      "imageUrl": "http://dummyimage.com/1542x2394.png/5fa2dd/ffffff",
      "latitude": 38.0375021,
      "longitude": 125.7079231,
      "name": "Sanford-Daniel"
    },
    {
      "id": 19,
      "address": "33833 High Crossing Park",
      "city": "Lidong",
      "country": "China",
      "dateCreate": "2020-04-21 12:23:12",
      "description": "ante ipsum primis in faucibus orci luctus et ultrices posuere cubilia",
      "imageUrl": "http://dummyimage.com/1147x2251.png/ff4444/ffffff",
      "latitude": 36.0491557,
      "longitude": 120.2139413,
      "name": "Abbott Group"
    },
    {
      "id": 20,
      "address": "9 Quincy Road",
      "city": "Andorinha",
      "country": "Portugal",
      "dateCreate": "2020-04-07 11:51:49",
      "description": "nisl aenean lectus pellentesque eget nunc donec quis orci eget orci vehicula",
      "imageUrl": "http://dummyimage.com/2025x1054.png/cc0000/ffffff",
      "latitude": 40.2758091,
      "longitude": -8.5720706,
      "name": "Schiller, Mann and Ratke"
    }
  ],
  
}
