[{"id":569736,"address":"599 Forster Plaza","city":"Río Grande","country":"Dominican Republic","dateCreate":"2020-07-21 18:46:53","description":"nam ultrices libero non mattis pulvinar nulla pede ullamcorper augue a suscipit","imageUrl":"http://dummyimage.com/2448x1119.jpg/5fa2dd/ffffff","latitude":18.9120012,"longitude":-70.7490939,"name":"Koch and Sons"},{"id":882808,"address":"3324 Bartillon Place","city":"Decatur","country":"United States","dateCreate":"2019-11-10 15:55:01","description":"sodales sed tincidunt eu felis fusce posuere felis sed lacus morbi sem mauris laoreet ut rhoncus aliquet pulvinar sed","imageUrl":"http://dummyimage.com/1190x1162.jpg/5fa2dd/ffffff","latitude":33.7746886,"longitude":-84.2953464,"name":"Wolff, Stanton and Kirlin"},{"id":250844,"address":"95 Anniversary Crossing","city":"Punta de Piedra","country":"Venezuela","dateCreate":"2020-04-27 06:16:28","description":"tellus in sagittis dui vel nisl duis ac nibh fusce lacus purus aliquet at feugiat","imageUrl":"http://dummyimage.com/1042x2280.jpg/5fa2dd/ffffff","latitude":10.9015165,"longitude":-64.0857232,"name":"Kerluke-Lang"},{"id":656514,"address":"7 Myrtle Parkway","city":"Ariana","country":"Tunisia","dateCreate":"2020-04-27 12:06:23","description":"est donec odio justo sollicitudin ut suscipit a feugiat et eros vestibulum ac est","imageUrl":"http://dummyimage.com/1675x1201.jpg/ff4444/ffffff","latitude":36.8665367,"longitude":10.1647233,"name":"Mayer and Sons"},{"id":490319,"address":"636 Fremont Junction","city":"Shuangnian","country":"China","dateCreate":"2020-02-07 00:09:49","description":"nisl duis bibendum felis sed interdum venenatis turpis enim blandit mi in porttitor pede justo eu massa donec","imageUrl":"http://dummyimage.com/1107x1866.bmp/dddddd/000000","latitude":39.63549,"longitude":112.109567,"name":"Hoppe LLC"},{"id":201509,"address":"750 Aberg Trail","city":"Koatas Lao","country":"Indonesia","dateCreate":"2019-09-11 20:09:50","description":"mauris non ligula pellentesque ultrices phasellus id sapien in sapien iaculis congue vivamus metus arcu adipiscing","imageUrl":"http://dummyimage.com/1842x1762.bmp/5fa2dd/ffffff","latitude":-7.1432,"longitude":114.3603,"name":"Wolf LLC"},{"id":496700,"address":"59 Sullivan Circle","city":"Jingxiyuan","country":"China","dateCreate":"2020-02-18 23:25:40","description":"aliquam convallis nunc proin at turpis a pede posuere nonummy integer non velit donec diam neque vestibulum eget","imageUrl":"http://dummyimage.com/1050x1528.png/cc0000/ffffff","latitude":35.498159,"longitude":106.330646,"name":"Flatley-Kassulke"},{"id":383405,"address":"31254 La Follette Road","city":"Franca","country":"Brazil","dateCreate":"2019-09-02 16:01:26","description":"mauris sit amet eros suspendisse accumsan tortor quis turpis sed ante vivamus tortor","imageUrl":"http://dummyimage.com/1729x1723.jpg/ff4444/ffffff","latitude":-20.5503886,"longitude":-47.3951378,"name":"McLaughlin and Sons"},{"id":291931,"address":"748 Everett Drive","city":"Grabów","country":"Poland","dateCreate":"2020-03-22 13:57:43","description":"in blandit ultrices enim lorem ipsum dolor sit amet consectetuer adipiscing elit proin interdum mauris non","imageUrl":"http://dummyimage.com/2018x1488.bmp/cc0000/ffffff","latitude":52.1260857,"longitude":19.0103213,"name":"Cummings-Jerde"},{"id":579581,"address":"71492 Delaware Alley","city":"Ruzayevka","country":"Russia","dateCreate":"2020-03-03 20:48:15","description":"lectus pellentesque eget nunc donec quis orci eget orci vehicula condimentum","imageUrl":"http://dummyimage.com/2498x2356.bmp/dddddd/000000","latitude":54.0278591,"longitude":44.8841712,"name":"Beer-Stehr"},{"id":803963,"address":"24 Northwestern Pass","city":"Bocaiúva","country":"Brazil","dateCreate":"2019-12-05 18:38:18","description":"vestibulum ac est lacinia nisi venenatis tristique fusce congue diam id ornare imperdiet sapien urna","imageUrl":"http://dummyimage.com/2033x2169.png/cc0000/ffffff","latitude":-17.1113356,"longitude":-43.8203315,"name":"Klocko, Lueilwitz and Purdy"},{"id":492457,"address":"8614 Veith Pass","city":"Vrbno pod Pradědem","country":"Czech Republic","dateCreate":"2019-10-12 01:20:40","description":"nisl nunc nisl duis bibendum felis sed interdum venenatis turpis enim blandit mi in porttitor pede justo eu","imageUrl":"http://dummyimage.com/1379x1106.jpg/dddddd/000000","latitude":50.1209479,"longitude":17.3831619,"name":"Botsford, Prosacco and Walker"},{"id":658145,"address":"8 Shasta Crossing","city":"Usarin","country":"Palestinian Territory","dateCreate":"2020-08-08 15:46:03","description":"maecenas pulvinar lobortis est phasellus sit amet erat nulla tempus vivamus in felis eu sapien cursus vestibulum","imageUrl":"http://dummyimage.com/1522x1103.jpg/dddddd/000000","latitude":32.124929,"longitude":35.309237,"name":"Fadel and Sons"},{"id":737149,"address":"67 Dayton Drive","city":"Ngrayun","country":"Indonesia","dateCreate":"2019-09-12 23:32:35","description":"consequat in consequat ut nulla sed accumsan felis ut at dolor quis odio consequat varius integer ac leo","imageUrl":"http://dummyimage.com/1575x1345.png/dddddd/000000","latitude":-8.0888877,"longitude":111.4514369,"name":"Brekke LLC"},{"id":417526,"address":"64 Maple Wood Junction","city":"Kagadi","country":"Uganda","dateCreate":"2020-07-11 20:49:42","description":"sapien urna pretium nisl ut volutpat sapien arcu sed augue aliquam erat","imageUrl":"http://dummyimage.com/2212x2251.jpg/5fa2dd/ffffff","latitude":0.9400761,"longitude":30.8125638,"name":"Goodwin, Kub and Wuckert"},{"id":643493,"address":"08389 Valley Edge Junction","city":"Funan Chengguanzhen","country":"China","dateCreate":"2020-03-03 23:02:34","description":"eget congue eget semper rutrum nulla nunc purus phasellus in felis donec semper","imageUrl":"http://dummyimage.com/1411x1408.png/ff4444/ffffff","latitude":32.6350368,"longitude":115.5777522,"name":"Kutch-Ullrich"},{"id":895215,"address":"5263 Portage Alley","city":"Velika Kladuša","country":"Bosnia and Herzegovina","dateCreate":"2019-11-10 14:21:44","description":"turpis sed ante vivamus tortor duis mattis egestas metus aenean fermentum donec","imageUrl":"http://dummyimage.com/1907x2004.png/dddddd/000000","latitude":45.1838373,"longitude":15.8065454,"name":"Towne, Walter and Lebsack"},{"id":347490,"address":"7585 Service Street","city":"Qiaogu","country":"China","dateCreate":"2020-06-13 11:12:52","description":"duis mattis egestas metus aenean fermentum donec ut mauris eget massa tempor convallis nulla neque libero convallis eget","imageUrl":"http://dummyimage.com/2159x1757.jpg/cc0000/ffffff","latitude":25.505194,"longitude":108.484536,"name":"Okuneva, Denesik and Sanford"},{"id":896369,"address":"37260 Monterey Center","city":"Göteborg","country":"Sweden","dateCreate":"2019-08-31 07:04:35","description":"tortor duis mattis egestas metus aenean fermentum donec ut mauris eget massa tempor convallis","imageUrl":"http://dummyimage.com/2485x2355.jpg/cc0000/ffffff","latitude":57.6735995,"longitude":12.0098218,"name":"Schulist LLC"},{"id":744191,"address":"9053 Dunning Plaza","city":"Eldama Ravine","country":"Kenya","dateCreate":"2019-12-08 17:09:48","description":"ridiculus mus vivamus vestibulum sagittis sapien cum sociis natoque penatibus et magnis dis parturient montes nascetur ridiculus mus etiam vel","imageUrl":"http://dummyimage.com/1932x2490.png/ff4444/ffffff","latitude":0.053037,"longitude":35.729768,"name":"Donnelly-Stamm"},{"id":562169,"address":"973 Dunning Center","city":"Jonquière","country":"Canada","dateCreate":"2019-09-24 19:58:15","description":"dolor sit amet consectetuer adipiscing elit proin risus praesent lectus vestibulum quam sapien varius ut blandit non","imageUrl":"http://dummyimage.com/2394x2500.jpg/cc0000/ffffff","latitude":48.3705292,"longitude":-71.2653479,"name":"Goyette and Sons"},{"id":375489,"address":"9 Hollow Ridge Junction","city":"Sarāb","country":"Iran","dateCreate":"2020-01-20 19:22:13","description":"luctus ultricies eu nibh quisque id justo sit amet sapien dignissim vestibulum vestibulum ante ipsum primis in faucibus","imageUrl":"http://dummyimage.com/1274x1843.jpg/dddddd/000000","latitude":37.9429347,"longitude":47.538392,"name":"Price-Cormier"},{"id":652576,"address":"3 Sunnyside Point","city":"Altavista","country":"Mexico","dateCreate":"2020-05-03 00:49:12","description":"duis bibendum felis sed interdum venenatis turpis enim blandit mi in porttitor pede justo","imageUrl":"http://dummyimage.com/2361x1538.png/cc0000/ffffff","latitude":31.7394146,"longitude":-106.4177672,"name":"Graham-Feest"},{"id":401412,"address":"6912 Hermina Terrace","city":"Utara","country":"Indonesia","dateCreate":"2019-11-24 20:03:33","description":"in imperdiet et commodo vulputate justo in blandit ultrices enim","imageUrl":"http://dummyimage.com/1453x1027.jpg/dddddd/000000","latitude":-0.789275,"longitude":113.921327,"name":"Douglas LLC"},{"id":358666,"address":"9804 Donald Alley","city":"Maciejowice","country":"Poland","dateCreate":"2020-01-18 15:17:43","description":"tortor duis mattis egestas metus aenean fermentum donec ut mauris eget massa tempor convallis nulla neque libero convallis eget eleifend","imageUrl":"http://dummyimage.com/1365x1989.jpg/dddddd/000000","latitude":51.6919243,"longitude":21.5535126,"name":"Hamill, Howell and Jenkins"}]